"X","Y","fips","iso2","iso3","un","name","area","pop2005","region","subregion","lon","lat","cartodb_id","created_at","updated_at","gdp_pc_2013_country","gdp_pc_2013_gdp_pc"
20.471092,6.5632,"CT","CF","CAF",140,"Central African Republic",62298,4191429,2,17,20.483,6.571,40,"2014-08-28T00:00:00Z","2015-01-04T21:32:35Z","Central African Republic",603.742959794
29.901786,-3.346161,"BY","BI","BDI",108,"Burundi",2568,7858791,2,14,29.887,-3.356,29,"2014-08-28T00:00:00Z","2015-01-04T21:32:35Z","Burundi",771.7154295427
34.269043,-13.190967,"MI","MW","MWI",454,"Malawi",9408,13226091,2,14,33.808,-13.4,123,"2014-08-28T00:00:00Z","2015-01-04T21:32:35Z","Malawi",780.0031075655
23.646399,-2.871058,"CG","CD","COD",180,"Democratic Republic of the Congo",226705,58740547,2,17,23.654,-2.876,28,"2014-08-28T00:00:00Z","2015-01-04T21:32:35Z","Congo, Dem. Rep.",809.2175334435
-9.338044,6.453021,"LI","LR","LBR",430,"Liberia",9632,3441796,2,11,-9.657,6.682,104,"2014-08-28T00:00:00Z","2015-01-04T21:32:35Z","Liberia",877.9954800565
9.426032,17.409083,"NG","NE","NER",562,"Niger",126670,1326419,2,11,9.398,17.426,126,"2014-08-28T00:00:00Z","2015-01-04T21:32:35Z","Niger",916.1996912298
35.562686,-17.24934,"MZ","MZ","MOZ",508,"Mozambique",78409,20532675,2,14,37.923,-14.422,122,"2014-08-28T00:00:00Z","2015-01-04T21:32:35Z","Mozambique",1105.0734976374
38.933717,15.318835,"ER","ER","ERI",232,"Eritrea",10100,4526722,2,14,38.219,16.045,54,"2014-08-28T00:00:00Z","2015-01-04T21:32:35Z","Eritrea",1195.6767572634
-10.899682,10.428415,"GV","GN","GIN",324,"Guinea",24572,9002656,2,11,-10.942,10.439,76,"2014-08-28T00:00:00Z","2015-01-04T21:32:35Z","Guinea",1253.0848996802
39.630841,8.610914,"ET","ET","ETH",231,"Ethiopia",100000,78985857,2,14,39.616,8.626,56,"2014-08-28T00:00:00Z","2015-01-04T21:32:35Z","Ethiopia",1380.0002644891
0.931766,8.618468,"TO","TG","TGO",768,"Togo",5439,6238572,2,11,1.081,8.799,199,"2014-08-28T00:00:00Z","2015-01-04T21:32:35Z","Togo",1390.5197109532
-14.941539,12.046717,"PU","GW","GNB",624,"Guinea-Bissau",2812,1596929,2,11,-14.651,12.125,168,"2014-08-28T00:00:00Z","2015-01-04T21:32:35Z","Guinea-Bissau",1407.0267722456
32.383907,1.29096,"UG","UG","UGA",800,"Uganda",19710,28947181,2,14,32.386,1.28,206,"2014-08-28T00:00:00Z","2015-01-04T21:32:35Z","Uganda",1413.1546301328
46.686012,-19.362974,"MA","MG","MDG",450,"Madagascar",58154,18642586,2,14,46.706,-19.374,108,"2014-08-28T00:00:00Z","2015-01-04T21:32:35Z","Madagascar",1413.9907567398
43.794474,-11.961116,"CN","KM","COM",174,"Comoros",223,797902,2,14,43.337,-11.758,37,"2014-08-28T00:00:00Z","2015-01-04T21:32:35Z","Comoros",1446.1714947596
29.897237,-2.015985,"RW","RW","RWA",646,"Rwanda",2467,9233793,2,14,29.917,-1.998,176,"2014-08-28T00:00:00Z","2015-01-04T21:32:35Z","Rwanda",1473.6380116627
-1.759908,12.271678,"UV","BF","BFA",854,"Burkina Faso",27360,13933363,2,11,-1.74,12.278,210,"2014-08-28T00:00:00Z","2015-01-04T21:32:35Z","Burkina Faso",1514.186221411
-11.843637,8.597276,"SL","SL","SLE",694,"Sierra Leone",7162,5586403,2,11,-11.792,8.56,185,"2014-08-28T00:00:00Z","2015-01-04T21:32:35Z","Sierra Leone",1544.1832396182
-3.526269,17.358853,"ML","ML","MLI",466,"Mali",122019,1161109,2,11,-3.524,17.35,113,"2014-08-28T00:00:00Z","2015-01-04T21:32:35Z","Mali",1641.8345212845
-15.490289,13.466329,"GA","GM","GMB",270,"Gambia",1000,1617029,2,11,-15.386,13.453,66,"2014-08-28T00:00:00Z","2015-01-04T21:32:35Z","Gambia, The",1661.4235539937
-72.704019,18.874681,"HA","HT","HTI",332,"Haiti",2756,9296291,19,29,-72.278,19.142,78,"2014-08-28T00:00:00Z","2015-01-04T21:32:35Z","Haiti",1703.0293494023
34.798114,-6.270851,"TZ","TZ","TZA",834,"United Republic of Tanzania",88359,38477873,2,14,34.823,-6.27,205,"2014-08-28T00:00:00Z","2015-01-04T21:32:35Z","Tanzania",1775.058580326
2.332296,9.604765,"BN","BJ","BEN",204,"Benin",11062,8490301,2,11,2.469,10.541,19,"2014-08-28T00:00:00Z","2015-01-04T21:32:35Z","Benin",1790.7536367299
29.877719,-19.001586,"ZI","ZW","ZWE",716,"Zimbabwe",38685,13119679,2,14,29.872,-19,224,"2014-08-28T00:00:00Z","2015-01-04T21:32:35Z","Zimbabwe",1832.0832443232
-36.885871,0.982193,"KR","KI","KIR",296,"Kiribati",73,92003,9,57,175.036,-1.508,95,"2014-08-28T00:00:00Z","2015-01-04T21:32:35Z","Kiribati",1855.8288836198
66.001111,33.858776,"AF","AF","AFG",4,"Afghanistan",65209,25067407,142,34,65.216,33.677,31,"2014-08-28T00:00:00Z","2015-01-04T21:32:35Z","Afghanistan",1946.1938060318
159.398647,-8.925747,"BP","SB","SLB",90,"Solomon Islands",2799,472419,9,54,160.109,-9.611,20,"2014-08-28T00:00:00Z","2015-01-04T21:32:35Z","Solomon Islands",2068.9610622477
18.683041,15.318384,"CD","TD","TCD",148,"Chad",125920,10145609,2,17,18.665,15.361,36,"2014-08-28T00:00:00Z","2015-01-04T21:32:35Z","Chad",2088.5918355193
-14.457498,14.365899,"SG","SN","SEN",686,"Senegal",19253,1177034,2,11,-14.881,15.013,183,"2014-08-28T00:00:00Z","2015-01-04T21:32:35Z","Senegal",2241.9965251602
83.93354,28.266562,"NP","NP","NPL",524,"Nepal",14300,27093656,142,34,83.939,28.253,156,"2014-08-28T00:00:00Z","2015-01-04T21:32:35Z","Nepal",2244.7996284264
71.071093,38.541258,"TI","TJ","TJK",762,"Tajikistan",13996,6550213,142,143,69.42,38.665,196,"2014-08-28T00:00:00Z","2015-01-04T21:32:35Z","Tajikistan",2512.24756635
145.101946,-6.481762,"PP","PG","PNG",598,"Papua New Guinea",45286,6069715,9,54,143.459,-5.949,167,"2014-08-28T00:00:00Z","2015-01-04T21:32:35Z","Papua New Guinea",2539.0817042711
28.248313,-29.606359,"LT","LS","LSO",426,"Lesotho",3035,1980831,2,18,28.243,-29.581,181,"2014-08-28T00:00:00Z","2015-01-04T21:32:35Z","Lesotho",2576.2554940555
37.824699,0.538312,"KE","KE","KEN",404,"Kenya",56914,35598952,2,14,37.858,0.53,92,"2014-08-28T00:00:00Z","2015-01-04T21:32:35Z","Kenya",2794.9813190827
12.734692,5.637872,"CM","CM","CMR",120,"Cameroon",46540,17795149,2,17,12.277,5.133,35,"2014-08-28T00:00:00Z","2015-01-04T21:32:35Z","Cameroon",2830.1295390217
90.267065,23.886002,"BG","BD","BGD",50,"Bangladesh",13017,15328112,142,34,89.941,24.218,14,"2014-08-28T00:00:00Z","2015-01-04T21:32:35Z","Bangladesh",2948.0148897689
6.705389,0.472921,"TP","ST","STP",678,"Sao Tome and Principe",96,152622,2,17,6.629,0.201,200,"2014-08-28T00:00:00Z","2015-01-04T21:32:35Z","Sao Tome and Principe",2971.0670797658
167.585172,-16.104452,"NH","VU","VUT",548,"Vanuatu",1219,215366,9,54,166.899,-15.376,152,"2014-08-28T00:00:00Z","2015-01-04T21:32:35Z","Vanuatu",2990.9168299829
42.563497,11.757117,"DJ","DJ","DJI",262,"Djibouti",2318,804206,2,14,42.516,11.9,46,"2014-08-28T00:00:00Z","2015-01-04T21:32:35Z","Djibouti",2998.740585709
104.941541,12.724686,"CB","KH","KHM",116,"Cambodia",17652,13955507,142,35,104.564,12.714,25,"2014-08-28T00:00:00Z","2015-01-04T21:32:35Z","Cambodia",3041.0770902115
-10.347058,20.248399,"MR","MR","MRT",478,"Mauritania",102522,2963105,2,11,-10.332,20.26,116,"2014-08-28T00:00:00Z","2015-01-04T21:32:35Z","Mauritania",3042.8384941055
-5.543805,7.593751,"IV","CI","CIV",384,"Cote d'Ivoire",31800,18584701,2,11,-5.556,7.632,87,"2014-08-28T00:00:00Z","2015-01-04T21:32:35Z","Cote d'Ivoire",3210.4546443859
74.583467,41.448207,"KG","KG","KGZ",417,"Kyrgyzstan",19180,5203547,142,143,74.555,41.465,93,"2014-08-28T00:00:00Z","2015-01-04T21:32:35Z","Kyrgyz Republic",3212.9324411976
30.06023,13.829609,"SU","SD","SDN",736,"Sudan",237600,36899747,2,15,30.05,13.832,190,"2014-08-28T00:00:00Z","2015-01-04T21:32:35Z","Sudan",3372.9720069006
153.455054,7.268708,"FM","FM","FSM",583,"Micronesia, Federated States of",70,110058,9,57,158.235,6.883,63,"2014-08-28T00:00:00Z","2015-01-04T21:32:35Z","Micronesia, Fed. Sts.",3394.6472754718
178.17375,-7.555771,"TV","TV","TUV",798,"Tuvalu",3,10441,9,61,179.219,-8.514,203,"2014-08-28T00:00:00Z","2015-01-04T21:32:35Z","Tuvalu",3645.1579296558
168.462501,8.614654,"RM","MH","MHL",584,"Marshall Islands",0,5672,9,57,168.963,7.595,232,"2014-08-28T00:00:00Z","2015-01-04T21:32:35Z","Marshall Islands",3900.9973101083
27.803161,-13.443509,"ZA","ZM","ZMB",894,"Zambia",74339,11478317,2,14,26.32,-14.614,223,"2014-08-28T00:00:00Z","2015-01-04T21:32:35Z","Zambia",3925.4623873922
47.55352,15.805948,"YM","YE","YEM",887,"Yemen",52797,21095679,142,145,48.355,15.807,222,"2014-08-28T00:00:00Z","2015-01-04T21:32:35Z","Yemen, Rep.",3959.2918826328
-1.179136,7.925561,"GH","GH","GHA",288,"Ghana",22754,2253501,2,11,-1.207,7.96,69,"2014-08-28T00:00:00Z","2015-01-04T21:32:35Z","Ghana",3992.0900388475
-86.652844,14.84021,"HO","HN","HND",340,"Honduras",11189,683411,19,13,-86.863,14.819,79,"2014-08-28T00:00:00Z","2015-01-04T21:32:35Z","Honduras",4592.5933992746
69.398666,29.976438,"PK","PK","PAK",586,"Pakistan",77088,158080591,142,34,69.386,29.967,163,"2014-08-28T00:00:00Z","2015-01-04T21:32:35Z","Pakistan",4601.6889430345
-85.049844,12.822063,"NU","NI","NIC",558,"Nicaragua",12140,5462539,19,13,-85.034,12.84,159,"2014-08-28T00:00:00Z","2015-01-04T21:32:35Z","Nicaragua",4642.6962507046
28.447517,47.220316,"MD","MD","MDA",498,"Republic of Moldova",3288,3876661,150,151,28.599,47.193,172,"2014-08-28T00:00:00Z","2015-01-04T21:32:35Z","Moldova",4670.3501700054
103.749793,18.512943,"LA","LA","LAO",418,"Lao People's Democratic Republic",23080,566391,142,35,102.471,19.905,99,"2014-08-28T00:00:00Z","2015-01-04T21:32:35Z","Lao PDR",4822.0220736892
63.225665,41.731598,"UZ","UZ","UZB",860,"Uzbekistan",42540,26593123,142,143,63.17,41.75,212,"2014-08-28T00:00:00Z","2015-01-04T21:32:35Z","Uzbekistan",5168.2860345728
106.309448,16.688506,"VM","VN","VNM",704,"Viet Nam",32549,85028643,142,35,105.314,21.491,216,"2014-08-28T00:00:00Z","2015-01-04T21:32:35Z","Vietnam",5294.4398693333
-174.743217,-19.809875,"TN","TO","TON",776,"Tonga",72,99361,9,61,-175.185,-21.202,198,"2014-08-28T00:00:00Z","2015-01-04T21:32:35Z","Tonga",5304.206688986
79.6316,22.894337,"IN","IN","IND",356,"India",297319,1134403141,142,34,78.5,21,83,"2014-08-28T00:00:00Z","2015-01-04T21:32:35Z","India",5411.6155462918
8.115104,9.588115,"NI","NG","NGA",566,"Nigeria",91077,141356083,2,11,8.105,9.594,153,"2014-08-28T00:00:00Z","2015-01-04T21:32:35Z","Nigeria",5602.4087955244
-172.214943,-13.703505,"WS","WS","WSM",882,"Samoa",283,183845,9,61,-172.414,-13.652,220,"2014-08-28T00:00:00Z","2015-01-04T21:32:35Z","Samoa",5768.9857687581
15.218362,-0.873266,"CF","CG","COG",178,"Congo",34150,3609851,2,17,15.986,-0.055,27,"2014-08-28T00:00:00Z","2015-01-04T21:32:35Z","Congo, Rep.",5868.4805510153
-64.647297,-16.729753,"BL","BO","BOL",68,"Bolivia",108438,9182015,19,5,-64.671,-16.715,17,"2014-08-28T00:00:00Z","2015-01-04T21:32:35Z","Bolivia",6131.0616885614
-24.154355,16.041787,"CV","CV","CPV",132,"Cape Verde",403,506807,2,11,-23.634,15.071,42,"2014-08-28T00:00:00Z","2015-01-04T21:32:35Z","Cabo Verde",6416.317160988
122.920873,11.821778,"RP","PH","PHL",608,"Philippines",29817,84566163,142,35,122.466,11.118,173,"2014-08-28T00:00:00Z","2015-01-04T21:32:35Z","Philippines",6535.8758638147
-58.970258,4.745794,"GY","GY","GUY",328,"Guyana",19685,739472,19,5,-58.974,4.792,77,"2014-08-28T00:00:00Z","2015-01-04T21:32:35Z","Guyana",6545.9322303786
31.507277,-26.57698,"WZ","SZ","SWZ",748,"Swaziland",1720,1124529,2,18,31.497,-26.562,221,"2014-08-28T00:00:00Z","2015-01-04T21:32:35Z","Swaziland",6685.3381173413
43.491672,42.204286,"GG","GE","GEO",268,"Georgia",6949,4473409,142,145,43.518,42.176,68,"2014-08-28T00:00:00Z","2015-01-04T21:32:35Z","Georgia",7176.443626392
-6.268993,31.920551,"MO","MA","MAR",504,"Morocco",44630,30494991,2,15,-5.758,32.706,114,"2014-08-28T00:00:00Z","2015-01-04T21:32:35Z","Morocco",7198.1637191679
-90.343364,15.702474,"GT","GT","GTM",320,"Guatemala",10843,12709564,19,13,-90.398,15.256,75,"2014-08-28T00:00:00Z","2015-01-04T21:32:35Z","Guatemala",7296.5925731964
90.464828,27.40658,"BT","BT","BTN",64,"Bhutan",4700,637013,142,34,90.429,27.415,32,"2014-08-28T00:00:00Z","2015-01-04T21:32:35Z","Bhutan",7404.7367843187
17.522426,-12.307432,"AO","AO","AGO",24,"Angola",124670,16095214,2,17,17.544,-12.296,6,"2014-08-28T00:00:00Z","2015-01-04T21:32:35Z","Angola",7736.1746816331
166.843826,-17.417251,"FJ","FJ","FJI",242,"Fiji",1827,828046,9,54,177.974,-17.819,61,"2014-08-28T00:00:00Z","2015-01-04T21:32:35Z","Fiji",7750.4306590386
-88.85175,13.713582,"ES","SV","SLV",222,"El Salvador",2072,6668356,19,13,-88.866,13.736,55,"2014-08-28T00:00:00Z","2015-01-04T21:32:35Z","El Salvador",7764.1427446071
44.983528,40.303842,"AM","AM","ARM",51,"Armenia",2820,3017661,142,145,44.563,40.534,5,"2014-08-28T00:00:00Z","2015-01-04T21:32:35Z","Armenia",7776.2860430691
-58.386012,-23.259388,"PA","PY","PRY",600,"Paraguay",39730,5904342,19,5,-58.391,-23.236,161,"2014-08-28T00:00:00Z","2015-01-04T21:32:35Z","Paraguay",8092.6727566503
-88.706031,17.218817,"BH","BZ","BLZ",84,"Belize",2281,275546,19,13,-88.602,17.219,15,"2014-08-28T00:00:00Z","2015-01-04T21:32:35Z","Belize",8486.8985396737
31.384006,49.018044,"UP","UA","UKR",804,"Ukraine",57935,46917544,150,151,31.388,49.016,208,"2014-08-28T00:00:00Z","2015-01-04T21:32:35Z","Ukraine",8789.9820005101
-77.311358,18.125185,"JM","JM","JAM",388,"Jamaica",1083,2682469,19,29,-77.32,18.151,90,"2014-08-28T00:00:00Z","2015-01-04T21:32:35Z","Jamaica",8891.8915424843
103.081007,46.841309,"MG","MN","MNG",496,"Mongolia",156650,2580704,142,30,102.876,46.056,110,"2014-08-28T00:00:00Z","2015-01-04T21:32:35Z","Mongolia",9434.9627693653
17.759853,44.13938,"BK","BA","BIH",70,"Bosnia and Herzegovina",5120,3915238,150,39,17.786,44.169,16,"2014-08-28T00:00:00Z","2015-01-04T21:32:35Z","Bosnia and Herzegovina",9535.5397905006
117.211897,-2.176955,"ID","ID","IDN",360,"Indonesia",181157,226063044,142,35,114.252,-0.976,225,"2014-08-28T00:00:00Z","2015-01-04T21:32:35Z","Indonesia",9561.1263518309
17.204869,-22.144359,"WA","NA","NAM",516,"Namibia",82329,2019677,2,18,17.218,-22.133,218,"2014-08-28T00:00:00Z","2015-01-04T21:32:35Z","Namibia",9583.1847565644
80.678178,7.650325,"CE","LK","LKA",144,"Sri Lanka",6463,19120763,142,34,80.704,7.612,26,"2014-08-28T00:00:00Z","2015-01-04T21:32:35Z","Sri Lanka",9738.1191741745
-61.356392,15.430462,"DO","DM","DMA",212,"Dominica",75,67827,19,29,-61.356,15.475,47,"2014-08-28T00:00:00Z","2015-01-04T21:32:35Z","Dominica",10343.1557312332
20.074366,41.132545,"AL","AL","ALB",8,"Albania",2740,3153731,150,39,20.068,41.143,4,"2014-08-28T00:00:00Z","2015-01-04T21:32:35Z","Albania",10374.015637354
-60.988152,13.899629,"ST","LC","LCA",662,"Saint Lucia",61,16124,19,29,-60.969,13.898,189,"2014-08-28T00:00:00Z","2015-01-04T21:32:35Z","St. Lucia",10487.9682765538
-61.221526,13.192709,"VC","VC","VCT",670,"Saint Vincent and the Grenadines",39,119137,19,29,-61.194,13.248,213,"2014-08-28T00:00:00Z","2015-01-04T21:32:35Z","St. Vincent and the Grenadines",10490.6041669164
-78.630321,-1.433182,"EC","EC","ECU",218,"Ecuador",27684,13060993,19,5,-78.497,-1.385,49,"2014-08-28T00:00:00Z","2015-01-04T21:32:35Z","Ecuador",10889.9891270309
29.893088,26.495736,"EG","EG","EGY",818,"Egypt",99545,72849793,2,15,29.872,26.494,50,"2014-08-28T00:00:00Z","2015-01-04T21:32:35Z","Egypt, Arab Rep.",11089.2111773151
9.548714,34.111187,"TS","TN","TUN",788,"Tunisia",15536,10104685,2,15,9.596,35.383,201,"2014-08-28T00:00:00Z","2015-01-04T21:32:35Z","Tunisia",11124.4960087614
21.713406,41.585893,"MK","MK","MKD",807,"The former Yugoslav Republic of Macedonia",2543,2033655,150,39,21.698,41.6,112,"2014-08-28T00:00:00Z","2015-01-04T21:32:35Z","Macedonia, FYR",11611.97490519
-61.620027,12.170664,"GJ","GD","GRD",308,"Grenada",34,105237,19,29,-61.678,12.118,70,"2014-08-28T00:00:00Z","2015-01-04T21:32:35Z","Grenada",11645.340600932
73.258171,3.362066,"MV","MV","MDV",462,"Maldives",30,295297,142,34,72.92,3.548,119,"2014-08-28T00:00:00Z","2015-01-04T21:32:35Z","Maldives",11656.7428360248
-74.360979,-9.185527,"PE","PE","PER",604,"Peru",128000,27274266,19,5,-75.552,-9.326,162,"2014-08-28T00:00:00Z","2015-01-04T21:32:35Z","Peru",11774.1883417434
36.770555,31.240826,"JO","JO","JOR",400,"Jordan",8824,5544066,142,145,36.319,30.703,91,"2014-08-28T00:00:00Z","2015-01-04T21:32:35Z","Jordan",11784.5316899264
103.811478,36.569589,"CH","CN","CHN",156,"China",932743,1312978855,142,30,106.514,33.42,30,"2014-08-28T00:00:00Z","2015-01-04T21:32:35Z","China",11906.5073908244
-70.504581,18.893176,"DR","DO","DOM",214,"Dominican Republic",4838,9469601,19,29,-70.729,19.015,48,"2014-08-28T00:00:00Z","2015-01-04T21:32:35Z","Dominican Republic",12186.388560558
-73.054034,3.885744,"CO","CO","COL",170,"Colombia",103870,4494579,19,5,-73.076,3.9,38,"2014-08-28T00:00:00Z","2015-01-04T21:32:35Z","Colombia",12423.9230431716
25.120924,-28.994937,"SF","ZA","ZAF",710,"South Africa",121447,47938663,2,18,23.121,-30.558,180,"2014-08-28T00:00:00Z","2015-01-04T21:32:35Z","South Africa",12506.7494760135
20.826811,43.992061,"RB","RS","SRB",688,"Serbia",0,9863026,150,39,20.806,44.032,238,"2014-08-28T00:00:00Z","2015-01-04T21:32:35Z","Serbia",13020.1042341046
2.627813,28.17211,"AG","DZ","DZA",12,"Algeria",238174,32854159,2,15,2.632,28.163,2,"2014-08-28T00:00:00Z","2015-01-04T21:32:35Z","Algeria",13320.2321901285
-84.097384,9.905459,"CS","CR","CRI",188,"Costa Rica",5106,4327228,19,13,-83.946,9.971,39,"2014-08-28T00:00:00Z","2015-01-04T21:32:35Z","Costa Rica",13875.8563536715
59.412347,39.127085,"TX","TM","TKM",795,"Turkmenistan",46993,4833266,142,143,59.384,39.122,204,"2014-08-28T00:00:00Z","2015-01-04T21:32:35Z","Turkmenistan",14004.160056658
19.273101,42.766131,"MJ","ME","MNE",499,"Montenegro",0,607969,150,39,19.254,42.792,140,"2014-08-28T00:00:00Z","2015-01-04T21:32:35Z","Montenegro",14131.6050000068
101.04712,15.157261,"TH","TH","THA",764,"Thailand",51089,63002911,142,35,100.844,15.7,195,"2014-08-28T00:00:00Z","2015-01-04T21:32:35Z","Thailand",14393.5307035565
43.759794,33.076969,"IZ","IQ","IRQ",368,"Iraq",43737,27995984,142,145,43.772,33.048,88,"2014-08-28T00:00:00Z","2015-01-04T21:32:35Z","Iraq",14951.0776794266
-53.101409,-10.803238,"BR","BR","BRA",76,"Brazil",845942,186830759,19,5,-53.089,-10.772,21,"2014-08-28T00:00:00Z","2015-01-04T21:32:35Z","Brazil",15037.4574693446
134.481215,7.395899,"PS","PW","PLW",585,"Palau",0,20127,9,57,134.57,7.501,231,"2014-08-28T00:00:00Z","2015-01-04T21:32:35Z","Palau",15095.9881392384
54.284732,32.576514,"IR","IR","IRN",364,"Iran (Islamic Republic of)",163620,69420607,142,34,54.301,32.565,84,"2014-08-28T00:00:00Z","2015-01-04T21:32:35Z","Iran, Islamic Rep.",15590.1519646088
25.250546,42.740132,"BU","BG","BGR",100,"Bulgaria",11063,7744591,150,151,25.231,42.761,22,"2014-08-28T00:00:00Z","2015-01-04T21:32:35Z","Bulgaria",15731.6726237737
23.802852,-22.182023,"BC","BW","BWA",72,"Botswana",56673,1835938,2,18,23.815,-22.182,182,"2014-08-28T00:00:00Z","2015-01-04T21:32:35Z","Botswana",15751.9022060328
-55.904897,4.115481,"NS","SR","SUR",740,"Suriname",15600,452468,19,5,-55.912,4.127,158,"2014-08-28T00:00:00Z","2015-01-04T21:32:35Z","Suriname",16071.3846314326
-102.518321,23.949124,"MX","MX","MEX",484,"Mexico",190869,104266392,19,13,-102.535,23.951,120,"2014-08-28T00:00:00Z","2015-01-04T21:32:35Z","Mexico",16463.392673388
47.551738,40.29568,"AJ","AZ","AZE",31,"Azerbaijan",8260,8352021,142,145,47.395,40.43,3,"2014-08-28T00:00:00Z","2015-01-04T21:32:35Z","Azerbaijan",17143.4792308476
35.926445,33.953104,"LE","LB","LBN",422,"Lebanon",1023,401074,142,145,35.888,33.92,100,"2014-08-28T00:00:00Z","2015-01-04T21:32:35Z","Lebanon",17173.8422362362
57.820625,-20.174951,"MP","MU","MUS",480,"Mauritius",203,1241173,2,14,57.583,-20.255,115,"2014-08-28T00:00:00Z","2015-01-04T21:32:35Z","Mauritius",17199.5294237952
28.036361,53.539592,"BO","BY","BLR",112,"Belarus",20748,9795287,150,151,28.047,53.54,102,"2014-08-28T00:00:00Z","2015-01-04T21:32:35Z","Belarus",17619.7696564982
-66.176111,7.103027,"VE","VE","VEN",862,"Venezuela",88205,26725573,19,5,-66.166,7.125,214,"2014-08-28T00:00:00Z","2015-01-04T21:32:35Z","Venezuela, RB",18198.3700172414
24.975057,45.806203,"RO","RO","ROU",642,"Romania",22987,21627557,150,151,24.969,45.844,171,"2014-08-28T00:00:00Z","2015-01-04T21:32:35Z","Romania",18991.3019526057
35.239909,39.0382,"TU","TR","TUR",792,"Turkey",76963,72969723,142,145,35.179,39.061,202,"2014-08-28T00:00:00Z","2015-01-04T21:32:35Z","Turkey",19020.0650632949
11.810186,-0.614838,"GB","GA","GAB",266,"Gabon",25767,1290693,2,17,11.797,-0.591,67,"2014-08-28T00:00:00Z","2015-01-04T21:32:35Z","Gabon",19264.3359398216
-80.066622,8.507978,"PM","PA","PAN",591,"Panama",7443,3231502,19,13,-80.92,8.384,165,"2014-08-28T00:00:00Z","2015-01-04T21:32:35Z","Panama",19416.2320170688
-55.999071,-32.790599,"UY","UY","URY",858,"Uruguay",17502,3325727,19,5,-56.012,-32.8,211,"2014-08-28T00:00:00Z","2015-01-04T21:32:35Z","Uruguay",19594.3695607622
-61.802406,17.33652,"AC","AG","ATG",28,"Antigua and Barbuda",44,83039,19,29,-61.783,17.078,1,"2014-08-28T00:00:00Z","2015-01-04T21:32:35Z","Antigua and Barbuda",21027.8266399337
18.025946,27.025638,"LY","LY","LBY",434,"Libyan Arab Jamahiriya",175954,5918217,2,15,18.023,27.044,107,"2014-08-28T00:00:00Z","2015-01-04T21:32:35Z","Libya",21046.3473378789
16.442661,45.140794,"HR","HR","HRV",191,"Croatia",5592,455149,150,39,16.693,45.723,80,"2014-08-28T00:00:00Z","2015-01-04T21:32:35Z","Croatia",21365.5824631022
-62.691411,17.260449,"SC","KN","KNA",659,"Saint Kitts and Nevis",36,49138,19,29,-62.769,17.34,178,"2014-08-28T00:00:00Z","2015-01-04T21:32:35Z","St. Kitts and Nevis",21395.6932205761
-71.252769,-37.001685,"CI","CL","CHL",152,"Chile",74880,16295102,19,5,-69.433,-23.389,33,"2014-08-28T00:00:00Z","2015-01-04T21:32:35Z","Chile",21911.3009745228
24.836723,56.867828,"LG","LV","LVA",428,"Latvia",6205,2301793,150,154,25.641,56.858,101,"2014-08-28T00:00:00Z","2015-01-04T21:32:35Z","Latvia",22560.2299095174
67.265025,48.146638,"KZ","KZ","KAZ",398,"Kazakhstan",269970,15210609,142,143,67.301,48.16,98,"2014-08-28T00:00:00Z","2015-01-04T21:32:35Z","Kazakhstan",23211.312265251
-76.840307,24.660783,"BF","BS","BHS",44,"Bahamas",1001,323295,19,29,-78.014,24.628,13,"2014-08-28T00:00:00Z","2015-01-04T21:32:35Z","Bahamas, The",23264.2722108642
109.73545,3.76623,"MY","MY","MYS",458,"Malaysia",32855,25652985,142,35,102.195,4.201,121,"2014-08-28T00:00:00Z","2015-01-04T21:32:35Z","Malaysia",23338.0140244332
19.425885,47.169247,"HU","HU","HUN",348,"Hungary",9210,10086387,150,151,19.134,47.07,81,"2014-08-28T00:00:00Z","2015-01-04T21:32:35Z","Hungary",23482.1020528711
19.373248,52.127499,"PL","PL","POL",616,"Poland",30629,38195558,150,151,19.401,52.125,164,"2014-08-28T00:00:00Z","2015-01-04T21:32:35Z","Poland",23649.1101792577
96.789791,61.912439,"RS","RU","RUS",643,"Russia",1638094,143953092,150,151,96.689,61.988,175,"2014-08-28T00:00:00Z","2015-01-04T21:32:35Z","Russian Federation",24114.0880976422
51.214146,-6.906443,"SE","SC","SYC",690,"Seychelles",46,85532,2,14,55.474,-4.647,179,"2014-08-28T00:00:00Z","2015-01-04T21:32:35Z","Seychelles",24587.4855947311
25.662769,58.661664,"EN","EE","EST",233,"Estonia",4239,1344312,150,154,25.793,58.674,53,"2014-08-28T00:00:00Z","2015-01-04T21:32:35Z","Estonia",25461.8507541553
23.892021,55.326498,"LH","LT","LTU",440,"Lithuania",6268,3425077,150,154,23.897,55.336,103,"2014-08-28T00:00:00Z","2015-01-04T21:32:35Z","Lithuania",25467.0459415157
22.858486,39.138096,"GR","GR","GRC",300,"Greece",12890,11099737,150,39,21.766,39.666,74,"2014-08-28T00:00:00Z","2015-01-04T21:32:35Z","Greece",25705.0373896157
19.523505,48.720497,"LO","SK","SVK",703,"Slovakia",4808,5386995,150,151,19.491,48.707,105,"2014-08-28T00:00:00Z","2015-01-04T21:32:35Z","Slovak Republic",26642.7084756583
-8.077509,39.654259,"PO","PT","PRT",620,"Portugal",9150,10528226,150,39,-8.058,40.309,166,"2014-08-28T00:00:00Z","2015-01-04T21:32:35Z","Portugal",26759.026122355
33.331711,35.029615,"CY","CY","CYP",196,"Cyprus",924,836321,142,145,33.219,35.043,44,"2014-08-28T00:00:00Z","2015-01-04T21:32:35Z","Cyprus",28224.4574448048
15.28705,49.761349,"EZ","CZ","CZE",203,"Czech Republic",7727,10191762,150,151,15.338,49.743,58,"2014-08-28T00:00:00Z","2015-01-04T21:32:35Z","Czech Republic",28769.8577721051
14.883059,46.143913,"SI","SI","SVN",705,"Slovenia",2014,1999425,150,39,14.827,46.124,184,"2014-08-28T00:00:00Z","2015-01-04T21:32:35Z","Slovenia",28995.6434884216
14.390641,35.911847,"MT","MT","MLT",470,"Malta",32,402617,150,39,14.442,35.89,117,"2014-08-28T00:00:00Z","2015-01-04T21:32:35Z","Malta",29133.1118089873
-61.270886,10.455121,"TD","TT","TTO",780,"Trinidad and Tobago",513,1323722,19,29,-61.253,10.468,194,"2014-08-28T00:00:00Z","2015-01-04T21:32:35Z","Trinidad and Tobago",30446.0075388524
34.964352,31.423444,"IS","IL","ISR",376,"Israel",2171,6692037,142,145,34.851,31.026,85,"2014-08-28T00:00:00Z","2015-01-04T21:32:35Z","Israel",32760.4112142528
-3.60234,40.268896,"SP","ES","ESP",724,"Spain",49904,43397491,150,39,-3.649,40.227,188,"2014-08-28T00:00:00Z","2015-01-04T21:32:35Z","Spain",32925.4740029116
127.871214,36.420721,"KS","KR","KOR",410,"Korea, Republic of",9873,47869837,142,30,128.103,36.504,96,"2014-08-28T00:00:00Z","2015-01-04T21:32:35Z","Korea, Rep.",33139.5820334768
10.361909,1.66534,"EK","GQ","GNQ",226,"Equatorial Guinea",2805,484098,2,17,10.488,1.607,52,"2014-08-28T00:00:00Z","2015-01-04T21:32:35Z","Equatorial Guinea",33768.289851408
-66.655066,18.227571,"RQ","PR","PRI",630,"Puerto Rico",887,3946779,19,29,-66.466,18.221,174,"2014-08-28T00:00:00Z","2015-01-04T21:32:35Z","Puerto Rico",34752.376062686
172.219129,-41.745969,"NZ","NZ","NZL",554,"New Zealand",26799,4097112,9,53,172.235,-42.634,160,"2014-08-28T00:00:00Z","2015-01-04T21:32:35Z","New Zealand",34825.7083942145
12.077385,42.840447,"IT","IT","ITA",380,"Italy",29411,5864636,150,39,12.8,42.7,86,"2014-08-28T00:00:00Z","2015-01-04T21:32:35Z","Italy",35597.3160550274
137.992659,37.532143,"JA","JP","JPN",392,"Japan",36450,127896740,142,30,139.068,36.491,89,"2014-08-28T00:00:00Z","2015-01-04T21:32:35Z","Japan",36449.0618262047
2.550861,46.586201,"FR","FR","FRA",250,"France",55010,60990544,150,155,2.55,46.565,65,"2014-08-28T00:00:00Z","2015-01-04T21:32:35Z","France",37871.8556151032
-2.844127,54.049162,"UK","GB","GBR",826,"United Kingdom",24193,60244834,150,154,-1.6,53,207,"2014-08-28T00:00:00Z","2015-01-04T21:32:35Z","United Kingdom",38451.6571582051
26.240738,64.518461,"FI","FI","FIN",246,"Finland",30459,5246004,150,154,26.272,64.504,60,"2014-08-28T00:00:00Z","2015-01-04T21:32:35Z","Finland",39812.3792223133
4.733151,50.666489,"BE","BE","BEL",56,"Belgium",0,10398049,150,155,4.664,50.643,129,"2014-08-28T00:00:00Z","2015-01-04T21:32:35Z","Belgium",41663.1137428586
-18.594206,65.003534,"IC","IS","ISL",352,"Iceland",10025,295732,150,154,-18.48,64.764,82,"2014-08-28T00:00:00Z","2015-01-04T21:32:35Z","Iceland",41938.9299464785
-98.45004,61.225369,"CA","CA","CAN",124,"Canada",909351,32270507,19,21,-109.433,59.081,24,"2014-08-28T00:00:00Z","2015-01-04T21:32:35Z","Canada",43247.0443447575
9.933947,55.995265,"DA","DK","DNK",208,"Denmark",4243,5416945,150,154,9.264,56.058,45,"2014-08-28T00:00:00Z","2015-01-04T21:32:35Z","Denmark",43444.6297130455
134.487169,-25.728492,"AS","AU","AUS",36,"Australia",768230,20310208,9,53,136.189,-24.973,9,"2014-08-28T00:00:00Z","2015-01-04T21:32:35Z","Australia",43543.8120396093
50.557782,25.967876,"BA","BH","BHR",48,"Bahrain",71,724788,142,145,50.562,26.019,10,"2014-08-28T00:00:00Z","2015-01-04T21:32:35Z","Bahrain",43714.9532430169
10.364249,51.112523,"GM","DE","DEU",276,"Germany",34895,82652369,150,155,9.851,51.11,72,"2014-08-28T00:00:00Z","2015-01-04T21:32:35Z","Germany",44469.4380913625
16.709591,62.823908,"SW","SE","SWE",752,"Sweden",41033,9038049,150,154,15.27,62.011,191,"2014-08-28T00:00:00Z","2015-01-04T21:32:35Z","Sweden",45148.1252596379
14.191527,47.60256,"AU","AT","AUT",40,"Austria",8245,8291979,150,155,14.912,47.683,57,"2014-08-28T00:00:00Z","2015-01-04T21:32:35Z","Austria",45492.8236393356
-8.085668,53.211679,"EI","IE","IRL",372,"Ireland",6889,4143294,150,154,-8.152,53.177,51,"2014-08-28T00:00:00Z","2015-01-04T21:32:35Z","Ireland",46139.6166017257
5.639292,52.258919,"NL","NL","NLD",528,"Netherlands",3388,1632769,150,155,5.389,52.077,154,"2014-08-28T00:00:00Z","2015-01-04T21:32:35Z","Netherlands",46298.4358637241
-98.5795,39.828175,"US","US","USA",840,"United States",915896,299846449,19,21,-98.606,39.622,209,"2014-08-28T00:00:00Z","2015-01-04T21:35:20Z","United States",53041.9814055623
114.124822,22.384373,"HK","HK","HKG",344,"Hong Kong",0,7057418,142,30,114.129,22.423,130,"2014-08-28T00:00:00Z","2015-01-04T21:32:35Z","Hong Kong SAR, China",53215.9373734741
44.595164,24.03588,"SA","SA","SAU",682,"Saudi Arabia",214969,2361236,142,145,44.585,24.023,177,"2014-08-28T00:00:00Z","2015-01-04T21:32:35Z","Saudi Arabia",53644.1269250098
8.224404,46.812654,"SZ","CH","CHE",756,"Switzerland",4000,7424389,150,155,7.908,46.861,193,"2014-08-28T00:00:00Z","2015-01-04T21:32:35Z","Switzerland",56564.9359472129
13.982011,64.27931,"NO","NO","NOR",578,"Norway",30625,4638836,150,154,8.74,61.152,155,"2014-08-28T00:00:00Z","2015-01-04T21:32:35Z","Norway",65461.1653874422
114.6687,4.528761,"BX","BN","BRN",96,"Brunei Darussalam",527,373831,142,35,114.591,4.468,23,"2014-08-28T00:00:00Z","2015-01-04T21:32:35Z","Brunei Darussalam",71776.6480123078
103.781647,1.376097,"SN","SG","SGP",702,"Singapore",67,4327468,142,35,103.808,1.351,186,"2014-08-28T00:00:00Z","2015-01-04T21:32:35Z","Singapore",78763.3849443771
6.159433,49.76868,"LU","LU","LUX",442,"Luxembourg",0,456613,150,155,6.088,49.771,136,"2014-08-28T00:00:00Z","2015-01-04T21:32:35Z","Luxembourg",90410.1436515027
51.2249,25.316793,"QA","QA","QAT",634,"Qatar",1100,796186,142,145,51.191,25.316,169,"2014-08-28T00:00:00Z","2015-01-04T21:32:35Z","Qatar",136727.253610167
113.546186,22.196839,"MC","MO","MAC",446,"Macau",0,47309,142,30,113.545,22.2,137,"2014-08-28T00:00:00Z","2015-01-04T21:32:35Z","Macao SAR, China",142599.240319212
